{"695187520": {"addr:housenumber": null, "amenity": "pub", "name": "Burton Bridge Inn", "point": {"lat": "52.8067094947484)", "lng": "-1.62524259977377"}, "industry": null, "addr:interpolation": null, "addr:housename": null, "microbrewery": "yes", "craft": null, "osm_id": 695187520, "type": "node"}, "1191319170": {"addr:housenumber": null, "amenity": "parking", "name": "Feast India", "point": {"lat": "52.6647558947511)", "lng": "-1.11027619984545"}, "industry": null, "addr:interpolation": null, "addr:housename": null, "microbrewery": "yes", "craft": null, "osm_id": 1191319170, "type": "node"}, "357708651": {"addr:housenumber": "18", "amenity": "pub", "name": "The Brewery Tap", "point": {"lat": "53.7951337947326)", "lng": "-1.5452227997849"}, "industry": null, "addr:interpolation": null, "addr:housename": null, "microbrewery": "yes", "craft": null, "osm_id": 357708651, "type": "node"}, "1322466950": {"addr:housenumber": null, "amenity": "former_pub", "name": null, "point": {"lat": "53.0226039947445)", "lng": "-1.43282549980055"}, "industry": null, "addr:interpolation": null, "addr:housename": null, "microbrewery": "yes", "craft": null, "osm_id": 1322466950, "type": "node"}, "55121165": {"addr:housenumber": null, "amenity": "pub", "name": "The Brunswick", "point": {"lat": "52.9182823477952)", "lng": "-1.46409966913694"}, "industry": null, "addr:interpolation": null, "addr:housename": null, "microbrewery": "yes", "craft": null, "osm_id": 55121165, "type": "way"}, "528287891": {"addr:housenumber": null, "amenity": "pub", "name": "Franciscan Well", "point": {"lat": "51.9011370947671)", "lng": "-8.48202339881929"}, "industry": null, "addr:interpolation": null, "addr:housename": null, "microbrewery": "yes", "craft": null, "osm_id": 528287891, "type": "node"}, "289778581": {"addr:housenumber": null, "amenity": "pub", "name": "The Watermill", "point": {"lat": "54.3803318947254)", "lng": "-2.85554419960251"}, "industry": null, "addr:interpolation": null, "addr:housename": null, "microbrewery": "yes", "craft": null, "osm_id": 289778581, "type": "node"}, "layerName": "brewmap_microbrewery", "812411807": {"addr:housenumber": "53", "amenity": "bar", "name": "Zero Degrees", "point": {"lat": "51.4563936947776)", "lng": "-2.59784189963838"}, "industry": null, "addr:interpolation": null, "addr:housename": null, "microbrewery": "yes", "craft": null, "osm_id": 812411807, "type": "node"}, "233186722": {"addr:housenumber": null, "amenity": "pub", "name": "The Globe", "point": {"lat": "53.4435676947376)", "lng": "-1.95674229972762"}, "industry": null, "addr:interpolation": null, "addr:housename": null, "microbrewery": "yes", "craft": null, "osm_id": 233186722, "type": "node"}, "371094435": {"addr:housenumber": null, "amenity": "pub", "name": "The Clockwork Bar", "point": {"lat": "55.8231349947153)", "lng": "-4.25865409940719"}, "industry": null, "addr:interpolation": null, "addr:housename": null, "microbrewery": "yes", "craft": null, "osm_id": 371094435, "type": "node"}, "130467750": {"addr:housenumber": null, "amenity": "pub", "name": "The Rowditch Inn", "point": {"lat": "52.9186359178793)", "lng": "-1.49824957499911"}, "industry": null, "addr:interpolation": null, "addr:housename": null, "microbrewery": "yes", "craft": null, "osm_id": 130467750, "type": "way"}, "771254439": {"addr:housenumber": null, "amenity": "pub", "name": "The Mason's Arms", "point": {"lat": "50.939887294791)", "lng": "-2.69879839962432"}, "industry": null, "addr:interpolation": null, "addr:housename": null, "microbrewery": "yes", "craft": null, "osm_id": 771254439, "type": "node"}, "304814504": {"addr:housenumber": null, "amenity": "pub", "name": "Old Poet's Corner", "point": {"lat": "53.1629583947422)", "lng": "-1.48046429979392"}, "industry": null, "addr:interpolation": null, "addr:housename": null, "microbrewery": "yes", "craft": null, "osm_id": 304814504, "type": "node"}, "1038815836": {"addr:housenumber": null, "amenity": "restaurant", "name": "Noble House", "point": {"lat": "51.4771581947771)", "lng": "-3.18040159955729"}, "industry": null, "addr:interpolation": null, "addr:housename": null, "microbrewery": "yes", "craft": null, "osm_id": 1038815836, "type": "node"}, "698649133": {"addr:housenumber": "45", "amenity": "pub", "name": "Porterhouse Central", "point": {"lat": "53.3429943947393)", "lng": "-6.25887299912876"}, "industry": null, "addr:interpolation": null, "addr:housename": null, "microbrewery": "yes", "craft": null, "osm_id": 698649133, "type": "node"}, "95037872": {"addr:housenumber": null, "amenity": "bar", "name": "Zero Degrees", "point": {"lat": "51.4790636920195)", "lng": "-3.17961821818664"}, "industry": null, "addr:interpolation": null, "addr:housename": null, "microbrewery": "yes", "craft": null, "osm_id": 95037872, "type": "way"}, "55070258": {"addr:housenumber": null, "amenity": "pub", "name": "The Falstaff", "point": {"lat": "52.9105152617238)", "lng": "-1.48013991072366"}, "industry": null, "addr:interpolation": null, "addr:housename": null, "microbrewery": "yes", "craft": null, "osm_id": 55070258, "type": "way"}, "631547323": {"addr:housenumber": null, "amenity": "pub", "name": "Oslo", "point": {"lat": "53.2597970947406)", "lng": "-9.0762465987366"}, "industry": null, "addr:interpolation": null, "addr:housename": null, "microbrewery": "yes", "craft": null, "osm_id": 631547323, "type": "node"}, "110816572": {"addr:housenumber": null, "amenity": "pub", "name": "Willys", "point": {"lat": "53.556646510041)", "lng": "-0.0233437613702817"}, "industry": null, "addr:interpolation": null, "addr:housename": null, "microbrewery": "yes", "craft": null, "osm_id": 110816572, "type": "way"}, "81601344": {"addr:housenumber": null, "amenity": "pub", "name": "The Yew Tree", "point": {"lat": "52.5158641639417)", "lng": "-1.87995320073708"}, "industry": null, "addr:interpolation": null, "addr:housename": null, "microbrewery": "yes", "craft": null, "osm_id": 81601344, "type": "way"}, "269704778": {"addr:housenumber": null, "amenity": "pub", "name": "The Roadside Tavern", "point": {"lat": "53.0283983947444)", "lng": "-9.29095849870672"}, "industry": null, "addr:interpolation": null, "addr:housename": null, "microbrewery": "yes", "craft": null, "osm_id": 269704778, "type": "node"}, "107108811": {"addr:housenumber": null, "amenity": "pub", "name": "Moulin Inn & Brewery", "point": {"lat": "56.7130613804317)", "lng": "-3.72683182034157"}, "industry": null, "addr:interpolation": null, "addr:housename": null, "microbrewery": "yes", "craft": null, "osm_id": 107108811, "type": "way"}, "746858253": {"addr:housenumber": null, "amenity": "pub", "name": "Black Bull Inn", "point": {"lat": "54.3692839947256)", "lng": "-3.07604829957181"}, "industry": null, "addr:interpolation": null, "addr:housename": null, "microbrewery": "yes", "craft": null, "osm_id": 746858253, "type": "node"}, "82106192": {"addr:housenumber": null, "amenity": "pub", "name": "Cap'n'Gown", "point": {"lat": "52.5124385985576)", "lng": "-1.88606603681632"}, "industry": null, "addr:interpolation": null, "addr:housename": null, "microbrewery": "yes", "craft": null, "osm_id": 82106192, "type": "way"}, "606400849": {"addr:housenumber": null, "amenity": "pub", "name": "Mr Grundy's Tavern", "point": {"lat": "52.9259125947462)", "lng": "-1.49289889979219"}, "industry": null, "addr:interpolation": null, "addr:housename": null, "microbrewery": "yes", "craft": null, "osm_id": 606400849, "type": "node"}, "1407192739": {"addr:housenumber": null, "amenity": "pub", "name": "Black Horse Inn", "point": {"lat": "52.5282805947537)", "lng": "-0.395770599944909"}, "industry": null, "addr:interpolation": null, "addr:housename": null, "microbrewery": "yes", "craft": null, "osm_id": 1407192739, "type": "node"}, "60706389": {"addr:housenumber": null, "amenity": "pub", "name": "The Flower Pot", "point": {"lat": "52.9261675947463)", "lng": "-1.47949399979406"}, "industry": null, "addr:interpolation": null, "addr:housename": null, "microbrewery": "yes", "craft": null, "osm_id": 60706389, "type": "node"}, "277969878": {"addr:housenumber": null, "amenity": "pub", "name": "Porterhouse", "point": {"lat": "53.3449997947392)", "lng": "-6.26743969912756"}, "industry": null, "addr:interpolation": null, "addr:housename": null, "microbrewery": "yes", "craft": null, "osm_id": 277969878, "type": "node"}, "232042456": {"addr:housenumber": null, "amenity": "pub", "name": "Messrs Maguire", "point": {"lat": "53.3469695947392)", "lng": "-6.25816239912886"}, "industry": null, "addr:interpolation": null, "addr:housename": null, "microbrewery": "yes", "craft": null, "osm_id": 232042456, "type": "node"}, "616277339": {"addr:housenumber": null, "amenity": "pub", "name": "The Gate", "point": {"lat": "51.814200394769)", "lng": "0.147661599979445"}, "industry": null, "addr:interpolation": null, "addr:housename": null, "microbrewery": "yes", "craft": null, "osm_id": 616277339, "type": "node"}, "114393180": {"addr:housenumber": null, "amenity": null, "name": "Callow Top Holiday Park", "point": {"lat": "53.0250828703804)", "lng": "-1.74718353354914"}, "industry": null, "addr:interpolation": null, "addr:housename": null, "microbrewery": "yes", "craft": null, "osm_id": 114393180, "type": "way"}, "172985055": {"addr:housenumber": null, "amenity": "pub", "name": "The Brewery Tap", "point": {"lat": "52.5759455947528)", "lng": "-0.247552299965541"}, "industry": null, "addr:interpolation": null, "addr:housename": null, "microbrewery": "yes", "craft": null, "osm_id": 172985055, "type": "node"}, "803021280": {"addr:housenumber": null, "amenity": "pub", "name": "The Corner Pin", "point": {"lat": "53.0593972947439)", "lng": "-1.32479239981559"}, "industry": null, "addr:interpolation": null, "addr:housename": null, "microbrewery": "yes", "craft": null, "osm_id": 803021280, "type": "node"}, "248102331": {"addr:housenumber": null, "amenity": "pub", "name": "WEST Beer", "point": {"lat": "55.8509198947152)", "lng": "-4.23388109941064"}, "industry": null, "addr:interpolation": null, "addr:housename": null, "microbrewery": "yes", "craft": null, "osm_id": 248102331, "type": "node"}, "59276138": {"addr:housenumber": null, "amenity": "restaurant", "name": "The Old School House", "point": {"lat": "51.1427854272444)", "lng": "-0.365545952885532"}, "industry": null, "addr:interpolation": null, "addr:housename": null, "microbrewery": "yes", "craft": null, "osm_id": 59276138, "type": "way"}, "307642219": {"addr:housenumber": null, "amenity": "pub", "name": "Marble Arch Inn", "point": {"lat": "53.488266594737)", "lng": "-2.23227639968926"}, "industry": null, "addr:interpolation": null, "addr:housename": null, "microbrewery": "yes", "craft": null, "osm_id": 307642219, "type": "node"}, "1400101523": {"addr:housenumber": null, "amenity": "pub", "name": "Lovibonds' Brewery Shop and Tasting Room", "point": {"lat": "51.5367007947756)", "lng": "-0.905307199873982"}, "industry": null, "addr:interpolation": null, "addr:housename": null, "microbrewery": "yes", "craft": null, "osm_id": 1400101523, "type": "node"}, "538599028": {"addr:housenumber": null, "amenity": "pub", "name": "The New Delight Inn", "point": {"lat": "53.7501604947332)", "lng": "-2.05871239971343"}, "industry": null, "addr:interpolation": null, "addr:housename": null, "microbrewery": "yes", "craft": null, "osm_id": 538599028, "type": "node"}, "83808507": {"addr:housenumber": null, "amenity": "pub", "name": "The John Thompson Inn", "point": {"lat": "52.8383411548933)", "lng": "-1.47758561440153"}, "industry": null, "addr:interpolation": null, "addr:housename": null, "microbrewery": "yes", "craft": null, "osm_id": 83808507, "type": "way"}, "336750461": {"addr:housenumber": null, "amenity": "pub", "name": "The Speedwell Inn", "point": {"lat": "53.2694251947404)", "lng": "-1.34368339981296"}, "industry": null, "addr:interpolation": null, "addr:housename": null, "microbrewery": "yes", "craft": null, "osm_id": 336750461, "type": "node"}, "151406549": {"addr:housenumber": null, "amenity": "pub", "name": "The Fox and Newt", "point": {"lat": "53.7999773947325)", "lng": "-1.55947769978292"}, "industry": null, "addr:interpolation": null, "addr:housename": null, "microbrewery": "yes", "craft": null, "osm_id": 151406549, "type": "node"}}