{"695187520": {"amenity": "pub", "name": "Burton Bridge Inn", "point": {"lat": "52.8067094947484)", "lng": "-1.62524259977377"}, "industry": null, "microbrewery": "yes", "craft": null, "osm_id": 695187520}, "1191319170": {"amenity": "parking", "name": "Feast India", "point": {"lat": "52.6647558947511)", "lng": "-1.11027619984545"}, "industry": null, "microbrewery": "yes", "craft": null, "osm_id": 1191319170}, "357708651": {"amenity": "pub", "name": "The Brewery Tap", "point": {"lat": "53.7951337947326)", "lng": "-1.5452227997849"}, "industry": null, "microbrewery": "yes", "craft": null, "osm_id": 357708651}, "1322466950": {"amenity": "former_pub", "name": null, "point": {"lat": "53.0226039947445)", "lng": "-1.43282549980055"}, "industry": null, "microbrewery": "yes", "craft": null, "osm_id": 1322466950}, "55121165": {"amenity": "pub", "name": "The Brunswick", "point": {"lat": "52.9182823477952)", "lng": "-1.46409966913694"}, "industry": null, "microbrewery": "yes", "craft": null, "osm_id": 55121165}, "528287891": {"amenity": "pub", "name": "Franciscan Well", "point": {"lat": "51.9011370947671)", "lng": "-8.48202339881929"}, "industry": null, "microbrewery": "yes", "craft": null, "osm_id": 528287891}, "289778581": {"amenity": "pub", "name": "The Watermill", "point": {"lat": "54.3803318947254)", "lng": "-2.85554419960251"}, "industry": null, "microbrewery": "yes", "craft": null, "osm_id": 289778581}, "layerName": "brewmap_microbrewery", "812411807": {"amenity": "bar", "name": "Zero Degrees", "point": {"lat": "51.4563936947776)", "lng": "-2.59784189963838"}, "industry": null, "microbrewery": "yes", "craft": null, "osm_id": 812411807}, "233186722": {"amenity": "pub", "name": "The Globe", "point": {"lat": "53.4435676947376)", "lng": "-1.95674229972762"}, "industry": null, "microbrewery": "yes", "craft": null, "osm_id": 233186722}, "371094435": {"amenity": "pub", "name": "The Clockwork Bar", "point": {"lat": "55.8231349947153)", "lng": "-4.25865409940719"}, "industry": null, "microbrewery": "yes", "craft": null, "osm_id": 371094435}, "130467750": {"amenity": "pub", "name": "The Rowditch Inn", "point": {"lat": "52.9186359178793)", "lng": "-1.49824957499911"}, "industry": null, "microbrewery": "yes", "craft": null, "osm_id": 130467750}, "771254439": {"amenity": "pub", "name": "The Mason's Arms", "point": {"lat": "50.939887294791)", "lng": "-2.69879839962432"}, "industry": null, "microbrewery": "yes", "craft": null, "osm_id": 771254439}, "304814504": {"amenity": "pub", "name": "Old Poet's Corner", "point": {"lat": "53.1629583947422)", "lng": "-1.48046429979392"}, "industry": null, "microbrewery": "yes", "craft": null, "osm_id": 304814504}, "1038815836": {"amenity": "restaurant", "name": "Noble House", "point": {"lat": "51.4771581947771)", "lng": "-3.18040159955729"}, "industry": null, "microbrewery": "yes", "craft": null, "osm_id": 1038815836}, "698649133": {"amenity": "pub", "name": "Porterhouse Central", "point": {"lat": "53.3429943947393)", "lng": "-6.25887299912876"}, "industry": null, "microbrewery": "yes", "craft": null, "osm_id": 698649133}, "95037872": {"amenity": "bar", "name": "Zero Degrees", "point": {"lat": "51.4790636920195)", "lng": "-3.17961821818664"}, "industry": null, "microbrewery": "yes", "craft": null, "osm_id": 95037872}, "55070258": {"amenity": "pub", "name": "The Falstaff", "point": {"lat": "52.9105152617238)", "lng": "-1.48013991072366"}, "industry": null, "microbrewery": "yes", "craft": null, "osm_id": 55070258}, "631547323": {"amenity": "pub", "name": "Oslo", "point": {"lat": "53.2597970947406)", "lng": "-9.0762465987366"}, "industry": null, "microbrewery": "yes", "craft": null, "osm_id": 631547323}, "110816572": {"amenity": "pub", "name": "Willys", "point": {"lat": "53.556646510041)", "lng": "-0.0233437613702817"}, "industry": null, "microbrewery": "yes", "craft": null, "osm_id": 110816572}, "81601344": {"amenity": "pub", "name": "The Yew Tree", "point": {"lat": "52.5158641639417)", "lng": "-1.87995320073708"}, "industry": null, "microbrewery": "yes", "craft": null, "osm_id": 81601344}, "269704778": {"amenity": "pub", "name": "The Roadside Tavern", "point": {"lat": "53.0283983947444)", "lng": "-9.29095849870672"}, "industry": null, "microbrewery": "yes", "craft": null, "osm_id": 269704778}, "107108811": {"amenity": "pub", "name": "Moulin Inn & Brewery", "point": {"lat": "56.7130613804317)", "lng": "-3.72683182034157"}, "industry": null, "microbrewery": "yes", "craft": null, "osm_id": 107108811}, "746858253": {"amenity": "pub", "name": "Black Bull Inn", "point": {"lat": "54.3692839947256)", "lng": "-3.07604829957181"}, "industry": null, "microbrewery": "yes", "craft": null, "osm_id": 746858253}, "82106192": {"amenity": "pub", "name": "Cap'n'Gown", "point": {"lat": "52.5124385985576)", "lng": "-1.88606603681632"}, "industry": null, "microbrewery": "yes", "craft": null, "osm_id": 82106192}, "606400849": {"amenity": "pub", "name": "Mr Grundy's Tavern", "point": {"lat": "52.9259125947462)", "lng": "-1.49289889979219"}, "industry": null, "microbrewery": "yes", "craft": null, "osm_id": 606400849}, "1407192739": {"amenity": "pub", "name": "Black Horse Inn", "point": {"lat": "52.5282805947537)", "lng": "-0.395770599944909"}, "industry": null, "microbrewery": "yes", "craft": null, "osm_id": 1407192739}, "60706389": {"amenity": "pub", "name": "The Flower Pot", "point": {"lat": "52.9261675947463)", "lng": "-1.47949399979406"}, "industry": null, "microbrewery": "yes", "craft": null, "osm_id": 60706389}, "277969878": {"amenity": "pub", "name": "Porterhouse", "point": {"lat": "53.3449997947392)", "lng": "-6.26743969912756"}, "industry": null, "microbrewery": "yes", "craft": null, "osm_id": 277969878}, "232042456": {"amenity": "pub", "name": "Messrs Maguire", "point": {"lat": "53.3469695947392)", "lng": "-6.25816239912886"}, "industry": null, "microbrewery": "yes", "craft": null, "osm_id": 232042456}, "616277339": {"amenity": "pub", "name": "The Gate", "point": {"lat": "51.814200394769)", "lng": "0.147661599979445"}, "industry": null, "microbrewery": "yes", "craft": null, "osm_id": 616277339}, "114393180": {"amenity": null, "name": "Callow Top Holiday Park", "point": {"lat": "53.0250828703804)", "lng": "-1.74718353354914"}, "industry": null, "microbrewery": "yes", "craft": null, "osm_id": 114393180}, "172985055": {"amenity": "pub", "name": "The Brewery Tap", "point": {"lat": "52.5759455947528)", "lng": "-0.247552299965541"}, "industry": null, "microbrewery": "yes", "craft": null, "osm_id": 172985055}, "803021280": {"amenity": "pub", "name": "The Corner Pin", "point": {"lat": "53.0593972947439)", "lng": "-1.32479239981559"}, "industry": null, "microbrewery": "yes", "craft": null, "osm_id": 803021280}, "248102331": {"amenity": "pub", "name": "WEST Beer", "point": {"lat": "55.8509198947152)", "lng": "-4.23388109941064"}, "industry": null, "microbrewery": "yes", "craft": null, "osm_id": 248102331}, "59276138": {"amenity": "restaurant", "name": "The Old School House", "point": {"lat": "51.1427854272444)", "lng": "-0.365545952885532"}, "industry": null, "microbrewery": "yes", "craft": null, "osm_id": 59276138}, "307642219": {"amenity": "pub", "name": "Marble Arch Inn", "point": {"lat": "53.488266594737)", "lng": "-2.23227639968926"}, "industry": null, "microbrewery": "yes", "craft": null, "osm_id": 307642219}, "1400101523": {"amenity": "pub", "name": "Lovibonds' Brewery Shop and Tasting Room", "point": {"lat": "51.5367007947756)", "lng": "-0.905307199873982"}, "industry": null, "microbrewery": "yes", "craft": null, "osm_id": 1400101523}, "538599028": {"amenity": "pub", "name": "The New Delight Inn", "point": {"lat": "53.7501604947332)", "lng": "-2.05871239971343"}, "industry": null, "microbrewery": "yes", "craft": null, "osm_id": 538599028}, "83808507": {"amenity": "pub", "name": "The John Thompson Inn", "point": {"lat": "52.8383411548933)", "lng": "-1.47758561440153"}, "industry": null, "microbrewery": "yes", "craft": null, "osm_id": 83808507}, "336750461": {"amenity": "pub", "name": "The Speedwell Inn", "point": {"lat": "53.2694251947404)", "lng": "-1.34368339981296"}, "industry": null, "microbrewery": "yes", "craft": null, "osm_id": 336750461}, "151406549": {"amenity": "pub", "name": "The Fox and Newt", "point": {"lat": "53.7999773947325)", "lng": "-1.55947769978292"}, "industry": null, "microbrewery": "yes", "craft": null, "osm_id": 151406549}}