{"31352832": {"osm_id": 31352832, "industrial": "brewery", "type": "way", "name": "Greene King Brewery", "point": {"lat": "52.2389031728875)", "lng": "0.717219009546305"}}, "1504009347": {"osm_id": 1504009347, "industrial": "brewery", "type": "node", "name": "Batemans Brewery", "point": {"lat": "53.1041733947432)", "lng": "0.232483099967638"}}, "138350806": {"osm_id": 138350806, "industrial": "brewery", "type": "way", "name": "Hurns Brewing Company", "point": {"lat": "51.6532643499217)", "lng": "-3.9207073404374"}}, "132744333": {"website": "http://www.wellsandyoungs.co.uk/", "industrial": "brewery", "name": "Wells and Youngs Brewing Company", "point": {"lat": "52.1304338119335)", "lng": "-0.481656170569542"}, "osm_id": 132744333, "type": "way"}, "4728342": {"website": "http://cameronsbrewery.com", "industrial": "brewery", "name": "Camerons Brewery", "point": {"lat": "54.6810768233282)", "lng": "-1.2128583167324"}, "osm_id": 4728342, "type": "way"}, "82843032": {"osm_id": 82843032, "industrial": "brewery", "type": "way", "name": "Carlsberg Brewery", "point": {"lat": "52.2325194214361)", "lng": "-0.89893343496379"}}, "129111331": {"osm_id": 129111331, "industrial": "brewery", "type": "way", "name": "Murphy's Brewery", "point": {"lat": "51.9043448552689)", "lng": "-8.47329852051458"}}, "34654117": {"osm_id": 34654117, "industrial": "brewery", "type": "way", "name": "Coors Brewery", "point": {"lat": "53.8853508628974)", "lng": "-1.27153560655616"}}, "27236518": {"osm_id": 27236518, "industrial": "brewery", "type": "way", "name": "Guinness Brewery", "point": {"lat": "53.3452302898518)", "lng": "-6.28794109284959"}}, "94247167": {"osm_id": 94247167, "industrial": "brewery", "type": "way", "name": "Brains brewery", "point": {"lat": "51.4740756976761)", "lng": "-3.18007926517166"}}, "60573240": {"osm_id": 60573240, "industrial": "brewery", "type": "way", "name": "Guinness Brewery Waterford", "point": {"lat": "52.2646039594265)", "lng": "-7.12186944237819"}}, "1512156094": {"website": "http://www.ringwoodbrewery.co.uk", "industrial": "brewery", "name": "Ringwood Brewery", "point": {"lat": "50.8407582947937)", "lng": "-1.78693279975126"}, "osm_id": 1512156094, "type": "node"}, "1091603573": {"website": "http://www.itchenvalley.com/", "industrial": "brewery", "name": "Itchen Valley Brewery", "point": {"lat": "51.0821058947872)", "lng": "-1.17107669983698"}, "osm_id": 1091603573, "type": "node"}, "141649604": {"website": "http://www.joseph-holt.com", "industrial": "brewery", "name": "Joseph Holt Brewery", "point": {"lat": "53.4934450989598)", "lng": "-2.24143827538659"}, "osm_id": 141649604, "type": "way"}, "82928197": {"addr:housenumber": "173", "industrial": "brewery", "name": "Aston Manor Brewery Company Limited", "point": {"lat": "52.4989316053634)", "lng": "-1.87300821601679"}, "url": "http://www.astonmanor.co.uk/", "osm_id": 82928197, "type": "way"}, "504623942": {"website": "http://www.staustellbrewery.co.uk/", "industrial": "brewery", "name": "St Austell Brewery", "point": {"lat": "50.3418889948081)", "lng": "-4.7880284993335"}, "osm_id": 504623942, "type": "node"}, "26607817": {"osm_id": 26607817, "industrial": "brewery", "type": "node", "name": "Stag Brewery", "point": {"lat": "51.4703903947773)", "lng": "-0.266534699962898"}}, "34654199": {"osm_id": 34654199, "industrial": "brewery", "type": "way", "name": "John Smith's Brewery", "point": {"lat": "53.8812061430144)", "lng": "-1.2621876636561"}}, "41699276": {"osm_id": 41699276, "industrial": "brewery", "type": "way", "name": "Magor Brewery", "point": {"lat": "51.5842025744626)", "lng": "-2.84507994624135"}}, "306202575": {"osm_id": 306202575, "industrial": "brewery", "type": "node", "name": "Saint Francis Abbey Brewery", "point": {"lat": "52.6556430947512)", "lng": "-7.25439559899018"}}, "29149010": {"osm_id": 29149010, "industrial": "brewery", "type": "way", "name": "Coors Brewery", "point": {"lat": "52.8098187850487)", "lng": "-1.62978828188117"}}, "401671459": {"website": "http://www.harveys.org.uk/", "industrial": "brewery", "name": "The Bridge Wharf Brewery", "point": {"lat": "50.8745470947928)", "lng": "0.0163982999977173"}, "osm_id": 401671459, "type": "node"}, "27713110": {"osm_id": 27713110, "industrial": "disused_brewery", "type": "way", "point": {"lat": "53.7919109049497)", "lng": "-1.53961691360719"}}, "55350746": {"osm_id": 55350746, "industrial": "brewery", "type": "way", "name": "Marston's Brewery", "point": {"lat": "52.8064536118881)", "lng": "-1.65862266608158"}}, "87850447": {"addr:housenumber": "2", "industrial": "brewery", "name": "Oakham Ales", "point": {"lat": "52.5561102182036)", "lng": "-0.260198510664652"}, "osm_id": 87850447, "type": "way"}, "24034913": {"osm_id": 24034913, "industrial": "brewery", "type": "way", "name": "Griffin Brewery", "point": {"lat": "51.4871650453696)", "lng": "-0.250030164085616"}}, "1286958975": {"osm_id": 1286958975, "industrial": "brewery", "type": "node", "name": "Wadworth Brewery", "point": {"lat": "51.3542442947802)", "lng": "-1.99802519972188"}}, "145172968": {"website": "http://www.hall-woodhouse.co.uk", "industrial": "brewery", "name": "Badger Brewery", "point": {"lat": "50.8523133326241)", "lng": "-2.16216880864722"}, "osm_id": 145172968, "type": "way"}, "37768678": {"osm_id": 37768678, "industrial": "brewery", "type": "way", "name": "Tennent's Wellpark Brewery", "point": {"lat": "55.8602231631511)", "lng": "-4.23060859598574"}}, "427581927": {"osm_id": 427581927, "industrial": "brewery", "type": "node", "name": "Adnams Brewery", "point": {"lat": "52.3269758947578)", "lng": "1.67983299976617"}}, "27217128": {"osm_id": 27217128, "industrial": "brewery", "type": "way", "name": "Guinness Brewery", "point": {"lat": "53.341961554155)", "lng": "-6.28573792042104"}}, "27451375": {"osm_id": 27451375, "industrial": "brewery", "type": "way", "name": "Royal Brewery", "point": {"lat": "53.460764854928)", "lng": "-2.24314416724647"}}, "-1821584": {"osm_id": -1821584, "industrial": "brewery", "type": "way", "name": "St Peter's", "point": {"lat": "52.4165591119355)", "lng": "1.43343507195155"}}, "139321457": {"website": "http://www.frederic-robinson.co.uk/", "industrial": "brewery", "name": "Robinsons", "point": {"lat": "53.4097200171287)", "lng": "-2.15490762506707"}, "osm_id": 139321457, "type": "way"}, "4604883": {"osm_id": 4604883, "industrial": "brewery", "type": "way", "name": "Samlesbury Brewery", "point": {"lat": "53.7620144251826)", "lng": "-2.61691970180079"}}, "36271038": {"osm_id": 36271038, "industrial": "brewery", "type": "way", "name": "H P Bulmer", "point": {"lat": "52.0602723567297)", "lng": "-2.72509753567437"}}, "29146102": {"osm_id": 29146102, "industrial": "brewery", "type": "way", "name": "Coors Brewery", "point": {"lat": "52.8040076322466)", "lng": "-1.63704241947586"}}, "34654327": {"osm_id": 34654327, "industrial": "brewery", "type": "way", "name": "The Old Brewery", "point": {"lat": "53.8831635112801)", "lng": "-1.26037098809901"}}, "29146104": {"osm_id": 29146104, "industrial": "brewery", "type": "way", "name": "Coors Brewery", "point": {"lat": "52.8073032114425)", "lng": "-1.63610594585678"}}, "564369530": {"osm_id": 564369530, "industrial": "brewery", "type": "node", "name": "North Brink Brewery", "point": {"lat": "52.6614571947511)", "lng": "0.150551399979043"}}, "31352831": {"osm_id": 31352831, "industrial": "brewery", "type": "way", "name": "Greene King Westgate Brewery", "point": {"lat": "52.241326644684)", "lng": "0.717874121090312"}}, "79299324": {"osm_id": 79299324, "industrial": "brewery", "type": "way", "name": "Everards Brewery", "point": {"lat": "52.595987617101)", "lng": "-1.18116926574093"}}, "69588991": {"osm_id": 69588991, "industrial": "brewery", "type": "way", "name": "Highgate & Walsall Brewing Co. Ltd (Davenports)", "point": {"lat": "52.5773355860705)", "lng": "-1.97559819836886"}}}