{"24034913": {"osm_id": 24034913, "industrial": "brewery", "type": "way", "name": "Griffin Brewery", "point": {"lat": "51.4871650453696)", "lng": "-0.250030164085616"}}, "1504009347": {"osm_id": 1504009347, "industrial": "brewery", "type": "node", "name": "Batemans Brewery", "point": {"lat": "53.1041733947432)", "lng": "0.232483099967638"}}, "27236518": {"osm_id": 27236518, "industrial": "brewery", "type": "way", "name": "Guinness Brewery", "point": {"lat": "53.3452302898518)", "lng": "-6.28794109284959"}}, "27217128": {"osm_id": 27217128, "industrial": "brewery", "type": "way", "name": "Guinness Brewery", "point": {"lat": "53.341961554155)", "lng": "-6.28573792042104"}}, "26607817": {"osm_id": 26607817, "industrial": "brewery", "type": "node", "name": "Stag Brewery", "point": {"lat": "51.4703903947773)", "lng": "-0.266534699962898"}}, "34654199": {"osm_id": 34654199, "industrial": "brewery", "type": "way", "name": "John Smith's Brewery", "point": {"lat": "53.8812061430144)", "lng": "-1.2621876636561"}}, "41699276": {"osm_id": 41699276, "industrial": "brewery", "type": "way", "name": "Magor Brewery", "point": {"lat": "51.5842025744626)", "lng": "-2.84507994624135"}}, "132744333": {"osm_id": 132744333, "industrial": "brewery", "type": "way", "name": "Wells and Youngs Brewing Company", "point": {"lat": "52.1304338119335)", "lng": "-0.481656170569542"}}, "306202575": {"osm_id": 306202575, "industrial": "brewery", "type": "node", "name": "Saint Francis Abbey Brewery", "point": {"lat": "52.6556430947512)", "lng": "-7.25439559899018"}}, "4604883": {"osm_id": 4604883, "industrial": "brewery", "type": "way", "name": "Samlesbury Brewery", "point": {"lat": "53.7620144251826)", "lng": "-2.61691970180079"}}, "34654327": {"osm_id": 34654327, "industrial": "brewery", "type": "way", "name": "The Old Brewery", "point": {"lat": "53.8831635112801)", "lng": "-1.26037098809901"}}, "137055289": {"osm_id": 137055289, "industrial": "brewery", "type": "way", "name": "The Chiltern Brewery", "point": {"lat": "51.7685454271168)", "lng": "-0.780387422294841"}}}