{"82928197": {"addr:housenumber": "173", "amenity": null, "name": "Aston Manor Brewery Company Limited", "point": {"lat": "52.4989316053634)", "lng": "-1.87300821601679"}, "industry": "brewery", "addr:interpolation": null, "addr:housename": null, "microbrewery": null, "craft": null, "osm_id": 82928197, "type": "way"}, "37768678": {"addr:housenumber": null, "amenity": null, "name": "Tennent's Wellpark Brewery", "point": {"lat": "55.8602231631511)", "lng": "-4.23060859598574"}, "industry": "brewery", "addr:interpolation": null, "addr:housename": null, "microbrewery": null, "craft": null, "osm_id": 37768678, "type": "way"}, "427581927": {"addr:housenumber": null, "amenity": null, "name": "Adnams Brewery", "point": {"lat": "52.3269758947578)", "lng": "1.67983299976617"}, "industry": "brewery", "addr:interpolation": null, "addr:housename": null, "microbrewery": null, "craft": null, "osm_id": 427581927, "type": "node"}, "41864332": {"addr:housenumber": null, "amenity": null, "name": "Badger Brewery", "point": {"lat": "50.8521151046859)", "lng": "-2.16208599259726"}, "industry": "brewery", "addr:interpolation": null, "addr:housename": null, "microbrewery": null, "craft": null, "osm_id": 41864332, "type": "way"}, "29146104": {"addr:housenumber": null, "amenity": null, "name": "Coors Brewery", "point": {"lat": "52.8073032114425)", "lng": "-1.63610594585678"}, "industry": "brewery", "addr:interpolation": null, "addr:housename": null, "microbrewery": null, "craft": null, "osm_id": 29146104, "type": "way"}, "4728342": {"addr:housenumber": null, "amenity": null, "name": "Camerons Brewery", "point": {"lat": "54.6810768233282)", "lng": "-1.2128583167324"}, "industry": "brewery", "addr:interpolation": null, "addr:housename": null, "microbrewery": null, "craft": null, "osm_id": 4728342, "type": "way"}, "82843032": {"addr:housenumber": null, "amenity": null, "name": "Carlsberg Brewery", "point": {"lat": "52.2325194214361)", "lng": "-0.89893343496379"}, "industry": "brewery", "addr:interpolation": null, "addr:housename": null, "microbrewery": null, "craft": null, "osm_id": 82843032, "type": "way"}, "55350746": {"addr:housenumber": null, "amenity": null, "name": "Marston's Brewery", "point": {"lat": "52.8064536118881)", "lng": "-1.65862266608158"}, "industry": "brewery", "addr:interpolation": null, "addr:housename": null, "microbrewery": null, "craft": null, "osm_id": 55350746, "type": "way"}, "layerName": "brewmap_industry", "36271038": {"addr:housenumber": null, "amenity": null, "name": "H P Bulmer", "point": {"lat": "52.0602714989555)", "lng": "-2.72510732133469"}, "industry": "brewery", "addr:interpolation": null, "addr:housename": null, "microbrewery": null, "craft": null, "osm_id": 36271038, "type": "way"}, "69588991": {"addr:housenumber": null, "amenity": null, "name": "Highgate & Walsall Brewing Co. Ltd (Davenports)", "point": {"lat": "52.5773355860705)", "lng": "-1.97559819836886"}, "industry": "brewery", "addr:interpolation": null, "addr:housename": null, "microbrewery": null, "craft": null, "osm_id": 69588991, "type": "way"}}